[
    {
        "stop_name": "8 Av",
        "daytime_routes": "L",
        "division": "BMT",
        "line": "Canarsie",
        "borough": "M",
        "structure": "Subway",
        "gtfs_longitude": -74.002578,
        "gtfs_latitude": 40.739777,
        "complex_id": "618",
        "date": "2021-09-14",
        "entries": 16904,
        "exits": 21466
    },
    {
        "stop_name": "6 Av",
        "daytime_routes": "L",
        "division": "BMT",
        "line": "Canarsie",
        "borough": "M",
        "structure": "Subway",
        "gtfs_longitude": -73.996786,
        "gtfs_latitude": 40.737335,
        "complex_id": "601",
        "date": "2021-09-14",
        "entries": 18221,
        "exits": 21267
    },
    {
        "stop_name": "Union Sq - 14 St",
        "daytime_routes": "L",
        "division": "BMT",
        "line": "Canarsie",
        "borough": "M",
        "structure": "Subway",
        "gtfs_longitude": -73.99073,
        "gtfs_latitude": 40.734789,
        "complex_id": "602",
        "date": "2021-09-14",
        "entries": 38661,
        "exits": 53185
    },
    {
        "stop_name": "3 Av",
        "daytime_routes": "L",
        "division": "BMT",
        "line": "Canarsie",
        "borough": "M",
        "structure": "Subway",
        "gtfs_longitude": -73.986122,
        "gtfs_latitude": 40.732849,
        "complex_id": "118",
        "date": "2021-09-14",
        "entries": 2781,
        "exits": 4032
    },
    {
        "stop_name": "1 Av",
        "daytime_routes": "L",
        "division": "BMT",
        "line": "Canarsie",
        "borough": "M",
        "structure": "Subway",
        "gtfs_longitude": -73.981628,
        "gtfs_latitude": 40.730953,
        "complex_id": "119",
        "date": "2021-09-14",
        "entries": 9961,
        "exits": 16793
    },
    {
        "stop_name": "Bedford Av",
        "daytime_routes": "L",
        "division": "BMT",
        "line": "Canarsie",
        "borough": "Bk",
        "structure": "Subway",
        "gtfs_longitude": -73.956872,
        "gtfs_latitude": 40.717304,
        "complex_id": "120",
        "date": "2021-09-14",
        "entries": 10417,
        "exits": 20131
    },
    {
        "stop_name": "Lorimer St",
        "daytime_routes": "L",
        "division": "BMT",
        "line": "Canarsie",
        "borough": "Bk",
        "structure": "Subway",
        "gtfs_longitude": -73.950275,
        "gtfs_latitude": 40.714063,
        "complex_id": "629",
        "date": "2021-09-14",
        "entries": 5874,
        "exits": 5484
    },
    {
        "stop_name": "Graham Av",
        "daytime_routes": "L",
        "division": "BMT",
        "line": "Canarsie",
        "borough": "Bk",
        "structure": "Subway",
        "gtfs_longitude": -73.944053,
        "gtfs_latitude": 40.714565,
        "complex_id": "122",
        "date": "2021-09-14",
        "entries": 3952,
        "exits": 5285
    },
    {
        "stop_name": "Grand St",
        "daytime_routes": "L",
        "division": "BMT",
        "line": "Canarsie",
        "borough": "Bk",
        "structure": "Subway",
        "gtfs_longitude": -73.94067,
        "gtfs_latitude": 40.711926,
        "complex_id": "123",
        "date": "2021-09-14",
        "entries": 3781,
        "exits": 5422
    },
    {
        "stop_name": "Montrose Av",
        "daytime_routes": "L",
        "division": "BMT",
        "line": "Canarsie",
        "borough": "Bk",
        "structure": "Subway",
        "gtfs_longitude": -73.93985,
        "gtfs_latitude": 40.707739,
        "complex_id": "124",
        "date": "2021-09-14",
        "entries": 3008,
        "exits": 3323
    },
    {
        "stop_name": "Morgan Av",
        "daytime_routes": "L",
        "division": "BMT",
        "line": "Canarsie",
        "borough": "Bk",
        "structure": "Subway",
        "gtfs_longitude": -73.933147,
        "gtfs_latitude": 40.706152,
        "complex_id": "125",
        "date": "2021-09-14",
        "entries": 3004,
        "exits": 3403
    },
    {
        "stop_name": "Jefferson St",
        "daytime_routes": "L",
        "division": "BMT",
        "line": "Canarsie",
        "borough": "Bk",
        "structure": "Subway",
        "gtfs_longitude": -73.922913,
        "gtfs_latitude": 40.706607,
        "complex_id": "126",
        "date": "2021-09-14",
        "entries": 3202,
        "exits": 1403
    },
    {
      "stop_name": "Myrtle - Wyckoff Avs",
      "daytime_routes": "M",
      "division": "BMT",
      "line": "Myrtle Av",
      "borough": "Bk",
      "structure": "Elevated",
      "gtfs_longitude": -73.912385,
      "gtfs_latitude": 40.69943,
      "complex_id": "630",
      "date": "2021-09-14",
      "entries": 5512,
      "exits": 8623
    },
    {
        "stop_name": "DeKalb Av",
        "daytime_routes": "L",
        "division": "BMT",
        "line": "Canarsie",
        "borough": "Bk",
        "structure": "Subway",
        "gtfs_longitude": -73.918425,
        "gtfs_latitude": 40.703811,
        "complex_id": "127",
        "date": "2021-09-14",
        "entries": 5791,
        "exits": 2704
    },
    {
        "stop_name": "Halsey St",
        "daytime_routes": "L",
        "division": "BMT",
        "line": "Canarsie",
        "borough": "Q",
        "structure": "Subway",
        "gtfs_longitude": -73.904084,
        "gtfs_latitude": 40.695602,
        "complex_id": "129",
        "date": "2021-09-14",
        "entries": 3750,
        "exits": 3719
    },
    {
        "stop_name": "Wilson Av",
        "daytime_routes": "L",
        "division": "BMT",
        "line": "Canarsie",
        "borough": "Bk",
        "structure": "Subway",
        "gtfs_longitude": -73.904046,
        "gtfs_latitude": 40.688764,
        "complex_id": "130",
        "date": "2021-09-14",
        "entries": 2203,
        "exits": 3231
    },
    {
        "stop_name": "Bushwick Av - Aberdeen St",
        "daytime_routes": "L",
        "division": "BMT",
        "line": "Canarsie",
        "borough": "Bk",
        "structure": "Subway",
        "gtfs_longitude": -73.905249,
        "gtfs_latitude": 40.682829,
        "complex_id": "131",
        "date": "2021-09-14",
        "entries": 1181,
        "exits": 1202
    },
    {
        "stop_name": "Broadway Jct",
        "daytime_routes": "L",
        "division": "BMT",
        "line": "Canarsie",
        "borough": "Bk",
        "structure": "Elevated",
        "gtfs_longitude": -73.90324,
        "gtfs_latitude": 40.678856,
        "complex_id": "621",
        "date": "2021-09-14",
        "entries": 4190,
        "exits": 5006
    },
    {
        "stop_name": "Atlantic Av",
        "daytime_routes": "L",
        "division": "BMT",
        "line": "Canarsie",
        "borough": "Bk",
        "structure": "Elevated",
        "gtfs_longitude": -73.903097,
        "gtfs_latitude": 40.675345,
        "complex_id": "133",
        "date": "2021-09-14",
        "entries": 1035,
        "exits": 680
    },
    {
        "stop_name": "Sutter Av",
        "daytime_routes": "L",
        "division": "BMT",
        "line": "Canarsie",
        "borough": "Bk",
        "structure": "Elevated",
        "gtfs_longitude": -73.901975,
        "gtfs_latitude": 40.669367,
        "complex_id": "134",
        "date": "2021-09-14",
        "entries": 1654,
        "exits": 2417
    },
    {
        "stop_name": "Livonia Av",
        "daytime_routes": "L",
        "division": "BMT",
        "line": "Canarsie",
        "borough": "Bk",
        "structure": "Elevated",
        "gtfs_longitude": -73.900571,
        "gtfs_latitude": 40.664038,
        "complex_id": "135",
        "date": "2021-09-14",
        "entries": 1557,
        "exits": 1888
    },
    {
        "stop_name": "New Lots Av",
        "daytime_routes": "L",
        "division": "BMT",
        "line": "Canarsie",
        "borough": "Bk",
        "structure": "Elevated",
        "gtfs_longitude": -73.899232,
        "gtfs_latitude": 40.658733,
        "complex_id": "136",
        "date": "2021-09-14",
        "entries": 2205,
        "exits": 3316
    },
    {
        "stop_name": "E 105 St",
        "daytime_routes": "L",
        "division": "BMT",
        "line": "Canarsie",
        "borough": "Bk",
        "structure": "At Grade",
        "gtfs_longitude": -73.899485,
        "gtfs_latitude": 40.650573,
        "complex_id": "137",
        "date": "2021-09-14",
        "entries": 1676,
        "exits": 2525
    },
    {
        "stop_name": "Canarsie - Rockaway Pkwy",
        "daytime_routes": "L",
        "division": "BMT",
        "line": "Canarsie",
        "borough": "Bk",
        "structure": "At Grade",
        "gtfs_longitude": -73.90185,
        "gtfs_latitude": 40.646654,
        "complex_id": "138",
        "date": "2021-09-14",
        "entries": 3848,
        "exits": 2656
    }
]